[
  {
    "num": 0,
    "country": "AD",
    "latitude": 42.546245,
    "longitude": 1.601554,
    "name": "Andorra"
  },
  {
    "num": 1,
    "country": "AE",
    "latitude": 23.424076,
    "longitude": 53.847818,
    "name": "United Arab Emirates"
  },
  {
    "num": 2,
    "country": "AF",
    "latitude": 33.93911,
    "longitude": 67.709953,
    "name": "Afghanistan"
  },
  {
    "num": 3,
    "country": "AG",
    "latitude": 17.060816,
    "longitude": -61.796428,
    "name": "Antigua and Barbuda"
  },
  {
    "num": 4,
    "country": "AI",
    "latitude": 18.220554,
    "longitude": -63.068615,
    "name": "Anguilla"
  },
  {
    "num": 5,
    "country": "AL",
    "latitude": 41.153332,
    "longitude": 20.168331,
    "name": "Albania"
  },
  {
    "num": 6,
    "country": "AM",
    "latitude": 40.069099,
    "longitude": 45.038189,
    "name": "Armenia"
  },
  {
    "num": 7,
    "country": "AN",
    "latitude": 12.226079,
    "longitude": -69.060087,
    "name": "Netherlands Antilles"
  },
  {
    "num": 8,
    "country": "AO",
    "latitude": -11.202692,
    "longitude": 17.873887,
    "name": "Angola"
  },
  {
    "num": 9,
    "country": "AQ",
    "latitude": -75.250973,
    "longitude": -0.071389,
    "name": "Antarctica"
  },
  {
    "num": 10,
    "country": "AR",
    "latitude": -38.416097,
    "longitude": -63.616672,
    "name": "Argentina"
  },
  {
    "num": 11,
    "country": "AS",
    "latitude": -14.270972,
    "longitude": -170.132217,
    "name": "American Samoa"
  },
  {
    "num": 12,
    "country": "AT",
    "latitude": 47.516231,
    "longitude": 14.550072,
    "name": "Austria"
  },
  {
    "num": 13,
    "country": "AU",
    "latitude": -25.274398,
    "longitude": 133.775136,
    "name": "Australia"
  },
  {
    "num": 14,
    "country": "AW",
    "latitude": 12.52111,
    "longitude": -69.968338,
    "name": "Aruba"
  },
  {
    "num": 15,
    "country": "AZ",
    "latitude": 40.143105,
    "longitude": 47.576927,
    "name": "Azerbaijan"
  },
  {
    "num": 16,
    "country": "BA",
    "latitude": 43.915886,
    "longitude": 17.679076,
    "name": "Bosnia and Herzegovina"
  },
  {
    "num": 17,
    "country": "BB",
    "latitude": 13.193887,
    "longitude": -59.543198,
    "name": "Barbados"
  },
  {
    "num": 18,
    "country": "BD",
    "latitude": 23.684994,
    "longitude": 90.356331,
    "name": "Bangladesh"
  },
  {
    "num": 19,
    "country": "BE",
    "latitude": 50.503887,
    "longitude": 4.469936,
    "name": "Belgium"
  },
  {
    "num": 20,
    "country": "BF",
    "latitude": 12.238333,
    "longitude": -1.561593,
    "name": "Burkina Faso"
  },
  {
    "num": 21,
    "country": "BG",
    "latitude": 42.733883,
    "longitude": 25.48583,
    "name": "Bulgaria"
  },
  {
    "num": 22,
    "country": "BH",
    "latitude": 25.930414,
    "longitude": 50.637772,
    "name": "Bahrain"
  },
  {
    "num": 23,
    "country": "BI",
    "latitude": -3.373056,
    "longitude": 29.918886,
    "name": "Burundi"
  },
  {
    "num": 24,
    "country": "BJ",
    "latitude": 9.30769,
    "longitude": 2.315834,
    "name": "Benin"
  },
  {
    "num": 25,
    "country": "BM",
    "latitude": 32.321384,
    "longitude": -64.75737,
    "name": "Bermuda"
  },
  {
    "num": 26,
    "country": "BN",
    "latitude": 4.535277,
    "longitude": 114.727669,
    "name": "Brunei"
  },
  {
    "num": 27,
    "country": "BO",
    "latitude": -16.290154,
    "longitude": -63.588653,
    "name": "Bolivia"
  },
  {
    "num": 28,
    "country": "BR",
    "latitude": -14.235004,
    "longitude": -51.92528,
    "name": "Brazil"
  },
  {
    "num": 29,
    "country": "BS",
    "latitude": 25.03428,
    "longitude": -77.39628,
    "name": "Bahamas"
  },
  {
    "num": 30,
    "country": "BT",
    "latitude": 27.514162,
    "longitude": 90.433601,
    "name": "Bhutan"
  },
  {
    "num": 31,
    "country": "BV",
    "latitude": -54.423199,
    "longitude": 3.413194,
    "name": "Bouvet Island"
  },
  {
    "num": 32,
    "country": "BW",
    "latitude": -22.328474,
    "longitude": 24.684866,
    "name": "Botswana"
  },
  {
    "num": 33,
    "country": "BY",
    "latitude": 53.709807,
    "longitude": 27.953389,
    "name": "Belarus"
  },
  {
    "num": 34,
    "country": "BZ",
    "latitude": 17.189877,
    "longitude": -88.49765,
    "name": "Belize"
  },
  {
    "num": 35,
    "country": "CA",
    "latitude": 56.130366,
    "longitude": -106.346771,
    "name": "Canada"
  },
  {
    "num": 36,
    "country": "CC",
    "latitude": -12.164165,
    "longitude": 96.870956,
    "name": "Cocos [Keeling] Islands"
  },
  {
    "num": 37,
    "country": "CD",
    "latitude": -4.038333,
    "longitude": 21.758664,
    "name": "Congo [DRC]"
  },
  {
    "num": 38,
    "country": "CF",
    "latitude": 6.611111,
    "longitude": 20.939444,
    "name": "Central African Republic"
  },
  {
    "num": 39,
    "country": "CG",
    "latitude": -0.228021,
    "longitude": 15.827659,
    "name": "Congo [Republic]"
  },
  {
    "num": 40,
    "country": "CH",
    "latitude": 46.818188,
    "longitude": 8.227512,
    "name": "Switzerland"
  },
  {
    "num": 41,
    "country": "CI",
    "latitude": 7.539989,
    "longitude": -5.54708,
    "name": "Côte d'Ivoire"
  },
  {
    "num": 42,
    "country": "CK",
    "latitude": -21.236736,
    "longitude": -159.777671,
    "name": "Cook Islands"
  },
  {
    "num": 43,
    "country": "CL",
    "latitude": -35.675147,
    "longitude": -71.542969,
    "name": "Chile"
  },
  {
    "num": 44,
    "country": "CM",
    "latitude": 7.369722,
    "longitude": 12.354722,
    "name": "Cameroon"
  },
  {
    "num": 45,
    "country": "CN",
    "latitude": 35.86166,
    "longitude": 104.195397,
    "name": "China"
  },
  {
    "num": 46,
    "country": "CO",
    "latitude": 4.570868,
    "longitude": -74.297333,
    "name": "Colombia"
  },
  {
    "num": 47,
    "country": "CR",
    "latitude": 9.748917,
    "longitude": -83.753428,
    "name": "Costa Rica"
  },
  {
    "num": 48,
    "country": "CU",
    "latitude": 21.521757,
    "longitude": -77.781167,
    "name": "Cuba"
  },
  {
    "num": 49,
    "country": "CV",
    "latitude": 16.002082,
    "longitude": -24.013197,
    "name": "Cape Verde"
  },
  {
    "num": 50,
    "country": "CX",
    "latitude": -10.447525,
    "longitude": 105.690449,
    "name": "Christmas Island"
  },
  {
    "num": 51,
    "country": "CY",
    "latitude": 35.126413,
    "longitude": 33.429859,
    "name": "Cyprus"
  },
  {
    "num": 52,
    "country": "CZ",
    "latitude": 49.817492,
    "longitude": 15.472962,
    "name": "Czech Republic"
  },
  {
    "num": 53,
    "country": "DE",
    "latitude": 51.165691,
    "longitude": 10.451526,
    "name": "Germany"
  },
  {
    "num": 54,
    "country": "DJ",
    "latitude": 11.825138,
    "longitude": 42.590275,
    "name": "Djibouti"
  },
  {
    "num": 55,
    "country": "DK",
    "latitude": 56.26392,
    "longitude": 9.501785,
    "name": "Denmark"
  },
  {
    "num": 56,
    "country": "DM",
    "latitude": 15.414999,
    "longitude": -61.370976,
    "name": "Dominica"
  },
  {
    "num": 57,
    "country": "DO",
    "latitude": 18.735693,
    "longitude": -70.162651,
    "name": "Dominican Republic"
  },
  {
    "num": 58,
    "country": "DZ",
    "latitude": 28.033886,
    "longitude": 1.659626,
    "name": "Algeria"
  },
  {
    "num": 59,
    "country": "EC",
    "latitude": -1.831239,
    "longitude": -78.183406,
    "name": "Ecuador"
  },
  {
    "num": 60,
    "country": "EE",
    "latitude": 58.595272,
    "longitude": 25.013607,
    "name": "Estonia"
  },
  {
    "num": 61,
    "country": "EG",
    "latitude": 26.820553,
    "longitude": 30.802498,
    "name": "Egypt"
  },
  {
    "num": 62,
    "country": "EH",
    "latitude": 24.215527,
    "longitude": -12.885834,
    "name": "Western Sahara"
  },
  {
    "num": 63,
    "country": "ER",
    "latitude": 15.179384,
    "longitude": 39.782334,
    "name": "Eritrea"
  },
  {
    "num": 64,
    "country": "ES",
    "latitude": 40.463667,
    "longitude": -3.74922,
    "name": "Spain"
  },
  {
    "num": 65,
    "country": "ET",
    "latitude": 9.145,
    "longitude": 40.489673,
    "name": "Ethiopia"
  },
  {
    "num": 66,
    "country": "FI",
    "latitude": 61.92411,
    "longitude": 25.748151,
    "name": "Finland"
  },
  {
    "num": 67,
    "country": "FJ",
    "latitude": -16.578193,
    "longitude": 179.414413,
    "name": "Fiji"
  },
  {
    "num": 68,
    "country": "FK",
    "latitude": -51.796253,
    "longitude": -59.523613,
    "name": "Falkland Islands [Islas Malvinas]"
  },
  {
    "num": 69,
    "country": "FM",
    "latitude": 7.425554,
    "longitude": 150.550812,
    "name": "Micronesia"
  },
  {
    "num": 70,
    "country": "FO",
    "latitude": 61.892635,
    "longitude": -6.911806,
    "name": "Faroe Islands"
  },
  {
    "num": 71,
    "country": "FR",
    "latitude": 46.227638,
    "longitude": 2.213749,
    "name": "France"
  },
  {
    "num": 72,
    "country": "GA",
    "latitude": -0.803689,
    "longitude": 11.609444,
    "name": "Gabon"
  },
  {
    "num": 73,
    "country": "GB",
    "latitude": 55.378051,
    "longitude": -3.435973,
    "name": "United Kingdom"
  },
  {
    "num": 74,
    "country": "GD",
    "latitude": 12.262776,
    "longitude": -61.604171,
    "name": "Grenada"
  },
  {
    "num": 75,
    "country": "GE",
    "latitude": 42.315407,
    "longitude": 43.356892,
    "name": "Georgia"
  },
  {
    "num": 76,
    "country": "GF",
    "latitude": 3.933889,
    "longitude": -53.125782,
    "name": "French Guiana"
  },
  {
    "num": 77,
    "country": "GG",
    "latitude": 49.465691,
    "longitude": -2.585278,
    "name": "Guernsey"
  },
  {
    "num": 78,
    "country": "GH",
    "latitude": 7.946527,
    "longitude": -1.023194,
    "name": "Ghana"
  },
  {
    "num": 79,
    "country": "GI",
    "latitude": 36.137741,
    "longitude": -5.345374,
    "name": "Gibraltar"
  },
  {
    "num": 80,
    "country": "GL",
    "latitude": 71.706936,
    "longitude": -42.604303,
    "name": "Greenland"
  },
  {
    "num": 81,
    "country": "GM",
    "latitude": 13.443182,
    "longitude": -15.310139,
    "name": "Gambia"
  },
  {
    "num": 82,
    "country": "GN",
    "latitude": 9.945587,
    "longitude": -9.696645,
    "name": "Guinea"
  },
  {
    "num": 83,
    "country": "GP",
    "latitude": 16.995971,
    "longitude": -62.067641,
    "name": "Guadeloupe"
  },
  {
    "num": 84,
    "country": "GQ",
    "latitude": 1.650801,
    "longitude": 10.267895,
    "name": "Equatorial Guinea"
  },
  {
    "num": 85,
    "country": "GR",
    "latitude": 39.074208,
    "longitude": 21.824312,
    "name": "Greece"
  },
  {
    "num": 86,
    "country": "GS",
    "latitude": -54.429579,
    "longitude": -36.587909,
    "name": "South Georgia and the South Sandwich Islands"
  },
  {
    "num": 87,
    "country": "GT",
    "latitude": 15.783471,
    "longitude": -90.230759,
    "name": "Guatemala"
  },
  {
    "num": 88,
    "country": "GU",
    "latitude": 13.444304,
    "longitude": 144.793731,
    "name": "Guam"
  },
  {
    "num": 89,
    "country": "GW",
    "latitude": 11.803749,
    "longitude": -15.180413,
    "name": "Guinea-Bissau"
  },
  {
    "num": 90,
    "country": "GY",
    "latitude": 4.860416,
    "longitude": -58.93018,
    "name": "Guyana"
  },
  {
    "num": 91,
    "country": "GZ",
    "latitude": 31.354676,
    "longitude": 34.308825,
    "name": "Gaza Strip"
  },
  {
    "num": 92,
    "country": "HK",
    "latitude": 22.396428,
    "longitude": 114.109497,
    "name": "Hong Kong"
  },
  {
    "num": 93,
    "country": "HM",
    "latitude": -53.08181,
    "longitude": 73.504158,
    "name": "Heard Island and McDonald Islands"
  },
  {
    "num": 94,
    "country": "HN",
    "latitude": 15.199999,
    "longitude": -86.241905,
    "name": "Honduras"
  },
  {
    "num": 95,
    "country": "HR",
    "latitude": 45.1,
    "longitude": 15.2,
    "name": "Croatia"
  },
  {
    "num": 96,
    "country": "HT",
    "latitude": 18.971187,
    "longitude": -72.285215,
    "name": "Haiti"
  },
  {
    "num": 97,
    "country": "HU",
    "latitude": 47.162494,
    "longitude": 19.503304,
    "name": "Hungary"
  },
  {
    "num": 98,
    "country": "ID",
    "latitude": -0.789275,
    "longitude": 113.921327,
    "name": "Indonesia"
  },
  {
    "num": 99,
    "country": "IE",
    "latitude": 53.41291,
    "longitude": -8.24389,
    "name": "Ireland"
  },
  {
    "num": 100,
    "country": "IL",
    "latitude": 31.046051,
    "longitude": 34.851612,
    "name": "Israel"
  },
  {
    "num": 101,
    "country": "IM",
    "latitude": 54.236107,
    "longitude": -4.548056,
    "name": "Isle of Man"
  },
  {
    "num": 102,
    "country": "IN",
    "latitude": 20.593684,
    "longitude": 78.96288,
    "name": "India"
  },
  {
    "num": 103,
    "country": "IO",
    "latitude": -6.343194,
    "longitude": 71.876519,
    "name": "British Indian Ocean Territory"
  },
  {
    "num": 104,
    "country": "IQ",
    "latitude": 33.223191,
    "longitude": 43.679291,
    "name": "Iraq"
  },
  {
    "num": 105,
    "country": "IR",
    "latitude": 32.427908,
    "longitude": 53.688046,
    "name": "Iran"
  },
  {
    "num": 106,
    "country": "IS",
    "latitude": 64.963051,
    "longitude": -19.020835,
    "name": "Iceland"
  },
  {
    "num": 107,
    "country": "IT",
    "latitude": 41.87194,
    "longitude": 12.56738,
    "name": "Italy"
  },
  {
    "num": 108,
    "country": "JE",
    "latitude": 49.214439,
    "longitude": -2.13125,
    "name": "Jersey"
  },
  {
    "num": 109,
    "country": "JM",
    "latitude": 18.109581,
    "longitude": -77.297508,
    "name": "Jamaica"
  },
  {
    "num": 110,
    "country": "JO",
    "latitude": 30.585164,
    "longitude": 36.238414,
    "name": "Jordan"
  },
  {
    "num": 111,
    "country": "JP",
    "latitude": 36.204824,
    "longitude": 138.252924,
    "name": "Japan"
  },
  {
    "num": 112,
    "country": "KE",
    "latitude": -0.023559,
    "longitude": 37.906193,
    "name": "Kenya"
  },
  {
    "num": 113,
    "country": "KG",
    "latitude": 41.20438,
    "longitude": 74.766098,
    "name": "Kyrgyzstan"
  },
  {
    "num": 114,
    "country": "KH",
    "latitude": 12.565679,
    "longitude": 104.990963,
    "name": "Cambodia"
  },
  {
    "num": 115,
    "country": "KI",
    "latitude": -3.370417,
    "longitude": -168.734039,
    "name": "Kiribati"
  },
  {
    "num": 116,
    "country": "KM",
    "latitude": -11.875001,
    "longitude": 43.872219,
    "name": "Comoros"
  },
  {
    "num": 117,
    "country": "KN",
    "latitude": 17.357822,
    "longitude": -62.782998,
    "name": "Saint Kitts and Nevis"
  },
  {
    "num": 118,
    "country": "KP",
    "latitude": 40.339852,
    "longitude": 127.510093,
    "name": "North Korea"
  },
  {
    "num": 119,
    "country": "KR",
    "latitude": 35.907757,
    "longitude": 127.766922,
    "name": "South Korea"
  },
  {
    "num": 120,
    "country": "KW",
    "latitude": 29.31166,
    "longitude": 47.481766,
    "name": "Kuwait"
  },
  {
    "num": 121,
    "country": "KY",
    "latitude": 19.513469,
    "longitude": -80.566956,
    "name": "Cayman Islands"
  },
  {
    "num": 122,
    "country": "KZ",
    "latitude": 48.019573,
    "longitude": 66.923684,
    "name": "Kazakhstan"
  },
  {
    "num": 123,
    "country": "LA",
    "latitude": 19.85627,
    "longitude": 102.495496,
    "name": "Laos"
  },
  {
    "num": 124,
    "country": "LB",
    "latitude": 33.854721,
    "longitude": 35.862285,
    "name": "Lebanon"
  },
  {
    "num": 125,
    "country": "LC",
    "latitude": 13.909444,
    "longitude": -60.978893,
    "name": "Saint Lucia"
  },
  {
    "num": 126,
    "country": "LI",
    "latitude": 47.166,
    "longitude": 9.555373,
    "name": "Liechtenstein"
  },
  {
    "num": 127,
    "country": "LK",
    "latitude": 7.873054,
    "longitude": 80.771797,
    "name": "Sri Lanka"
  },
  {
    "num": 128,
    "country": "LR",
    "latitude": 6.428055,
    "longitude": -9.429499,
    "name": "Liberia"
  },
  {
    "num": 129,
    "country": "LS",
    "latitude": -29.609988,
    "longitude": 28.233608,
    "name": "Lesotho"
  },
  {
    "num": 130,
    "country": "LT",
    "latitude": 55.169438,
    "longitude": 23.881275,
    "name": "Lithuania"
  },
  {
    "num": 131,
    "country": "LU",
    "latitude": 49.815273,
    "longitude": 6.129583,
    "name": "Luxembourg"
  },
  {
    "num": 132,
    "country": "LV",
    "latitude": 56.879635,
    "longitude": 24.603189,
    "name": "Latvia"
  },
  {
    "num": 133,
    "country": "LY",
    "latitude": 26.3351,
    "longitude": 17.228331,
    "name": "Libya"
  },
  {
    "num": 134,
    "country": "MA",
    "latitude": 31.791702,
    "longitude": -7.09262,
    "name": "Morocco"
  },
  {
    "num": 135,
    "country": "MC",
    "latitude": 43.750298,
    "longitude": 7.412841,
    "name": "Monaco"
  },
  {
    "num": 136,
    "country": "MD",
    "latitude": 47.411631,
    "longitude": 28.369885,
    "name": "Moldova"
  },
  {
    "num": 137,
    "country": "ME",
    "latitude": 42.708678,
    "longitude": 19.37439,
    "name": "Montenegro"
  },
  {
    "num": 138,
    "country": "MG",
    "latitude": -18.766947,
    "longitude": 46.869107,
    "name": "Madagascar"
  },
  {
    "num": 139,
    "country": "MH",
    "latitude": 7.131474,
    "longitude": 171.184478,
    "name": "Marshall Islands"
  },
  {
    "num": 140,
    "country": "MK",
    "latitude": 41.608635,
    "longitude": 21.745275,
    "name": "Macedonia [FYROM]"
  },
  {
    "num": 141,
    "country": "ML",
    "latitude": 17.570692,
    "longitude": -3.996166,
    "name": "Mali"
  },
  {
    "num": 142,
    "country": "MM",
    "latitude": 21.913965,
    "longitude": 95.956223,
    "name": "Myanmar [Burma]"
  },
  {
    "num": 143,
    "country": "MN",
    "latitude": 46.862496,
    "longitude": 103.846656,
    "name": "Mongolia"
  },
  {
    "num": 144,
    "country": "MO",
    "latitude": 22.198745,
    "longitude": 113.543873,
    "name": "Macau"
  },
  {
    "num": 145,
    "country": "MP",
    "latitude": 17.33083,
    "longitude": 145.38469,
    "name": "Northern Mariana Islands"
  },
  {
    "num": 146,
    "country": "MQ",
    "latitude": 14.641528,
    "longitude": -61.024174,
    "name": "Martinique"
  },
  {
    "num": 147,
    "country": "MR",
    "latitude": 21.00789,
    "longitude": -10.940835,
    "name": "Mauritania"
  },
  {
    "num": 148,
    "country": "MS",
    "latitude": 16.742498,
    "longitude": -62.187366,
    "name": "Montserrat"
  },
  {
    "num": 149,
    "country": "MT",
    "latitude": 35.937496,
    "longitude": 14.375416,
    "name": "Malta"
  },
  {
    "num": 150,
    "country": "MU",
    "latitude": -20.348404,
    "longitude": 57.552152,
    "name": "Mauritius"
  },
  {
    "num": 151,
    "country": "MV",
    "latitude": 3.202778,
    "longitude": 73.22068,
    "name": "Maldives"
  },
  {
    "num": 152,
    "country": "MW",
    "latitude": -13.254308,
    "longitude": 34.301525,
    "name": "Malawi"
  },
  {
    "num": 153,
    "country": "MX",
    "latitude": 23.634501,
    "longitude": -102.552784,
    "name": "Mexico"
  },
  {
    "num": 154,
    "country": "MY",
    "latitude": 4.210484,
    "longitude": 101.975766,
    "name": "Malaysia"
  },
  {
    "num": 155,
    "country": "MZ",
    "latitude": -18.665695,
    "longitude": 35.529562,
    "name": "Mozambique"
  },
  {
    "num": 156,
    "country": "",
    "latitude": -22.95764,
    "longitude": 18.49041,
    "name": "Namibia"
  },
  {
    "num": 157,
    "country": "NC",
    "latitude": -20.904305,
    "longitude": 165.618042,
    "name": "New Caledonia"
  },
  {
    "num": 158,
    "country": "NE",
    "latitude": 17.607789,
    "longitude": 8.081666,
    "name": "Niger"
  },
  {
    "num": 159,
    "country": "NF",
    "latitude": -29.040835,
    "longitude": 167.954712,
    "name": "Norfolk Island"
  },
  {
    "num": 160,
    "country": "NG",
    "latitude": 9.081999,
    "longitude": 8.675277,
    "name": "Nigeria"
  },
  {
    "num": 161,
    "country": "NI",
    "latitude": 12.865416,
    "longitude": -85.207229,
    "name": "Nicaragua"
  },
  {
    "num": 162,
    "country": "NL",
    "latitude": 52.132633,
    "longitude": 5.291266,
    "name": "Netherlands"
  },
  {
    "num": 163,
    "country": "NO",
    "latitude": 60.472024,
    "longitude": 8.468946,
    "name": "Norway"
  },
  {
    "num": 164,
    "country": "NP",
    "latitude": 28.394857,
    "longitude": 84.124008,
    "name": "Nepal"
  },
  {
    "num": 165,
    "country": "NR",
    "latitude": -0.522778,
    "longitude": 166.931503,
    "name": "Nauru"
  },
  {
    "num": 166,
    "country": "NU",
    "latitude": -19.054445,
    "longitude": -169.867233,
    "name": "Niue"
  },
  {
    "num": 167,
    "country": "NZ",
    "latitude": -40.900557,
    "longitude": 174.885971,
    "name": "New Zealand"
  },
  {
    "num": 168,
    "country": "OM",
    "latitude": 21.512583,
    "longitude": 55.923255,
    "name": "Oman"
  },
  {
    "num": 169,
    "country": "PA",
    "latitude": 8.537981,
    "longitude": -80.782127,
    "name": "Panama"
  },
  {
    "num": 170,
    "country": "PE",
    "latitude": -9.189967,
    "longitude": -75.015152,
    "name": "Peru"
  },
  {
    "num": 171,
    "country": "PF",
    "latitude": -17.679742,
    "longitude": -149.406843,
    "name": "French Polynesia"
  },
  {
    "num": 172,
    "country": "PG",
    "latitude": -6.314993,
    "longitude": 143.95555,
    "name": "Papua New Guinea"
  },
  {
    "num": 173,
    "country": "PH",
    "latitude": 12.879721,
    "longitude": 121.774017,
    "name": "Philippines"
  },
  {
    "num": 174,
    "country": "PK",
    "latitude": 30.375321,
    "longitude": 69.345116,
    "name": "Pakistan"
  },
  {
    "num": 175,
    "country": "PL",
    "latitude": 51.919438,
    "longitude": 19.145136,
    "name": "Poland"
  },
  {
    "num": 176,
    "country": "PM",
    "latitude": 46.941936,
    "longitude": -56.27111,
    "name": "Saint Pierre and Miquelon"
  },
  {
    "num": 177,
    "country": "PN",
    "latitude": -24.703615,
    "longitude": -127.439308,
    "name": "Pitcairn Islands"
  },
  {
    "num": 178,
    "country": "PR",
    "latitude": 18.220833,
    "longitude": -66.590149,
    "name": "Puerto Rico"
  },
  {
    "num": 179,
    "country": "PS",
    "latitude": 31.952162,
    "longitude": 35.233154,
    "name": "Palestinian Territories"
  },
  {
    "num": 180,
    "country": "PT",
    "latitude": 39.399872,
    "longitude": -8.224454,
    "name": "Portugal"
  },
  {
    "num": 181,
    "country": "PW",
    "latitude": 7.51498,
    "longitude": 134.58252,
    "name": "Palau"
  },
  {
    "num": 182,
    "country": "PY",
    "latitude": -23.442503,
    "longitude": -58.443832,
    "name": "Paraguay"
  },
  {
    "num": 183,
    "country": "QA",
    "latitude": 25.354826,
    "longitude": 51.183884,
    "name": "Qatar"
  },
  {
    "num": 184,
    "country": "RE",
    "latitude": -21.115141,
    "longitude": 55.536384,
    "name": "Réunion"
  },
  {
    "num": 185,
    "country": "RO",
    "latitude": 45.943161,
    "longitude": 24.96676,
    "name": "Romania"
  },
  {
    "num": 186,
    "country": "RS",
    "latitude": 44.016521,
    "longitude": 21.005859,
    "name": "Serbia"
  },
  {
    "num": 187,
    "country": "RU",
    "latitude": 61.52401,
    "longitude": 105.318756,
    "name": "Russia"
  },
  {
    "num": 188,
    "country": "RW",
    "latitude": -1.940278,
    "longitude": 29.873888,
    "name": "Rwanda"
  },
  {
    "num": 189,
    "country": "SA",
    "latitude": 23.885942,
    "longitude": 45.079162,
    "name": "Saudi Arabia"
  },
  {
    "num": 190,
    "country": "SB",
    "latitude": -9.64571,
    "longitude": 160.156194,
    "name": "Solomon Islands"
  },
  {
    "num": 191,
    "country": "SC",
    "latitude": -4.679574,
    "longitude": 55.491977,
    "name": "Seychelles"
  },
  {
    "num": 192,
    "country": "SD",
    "latitude": 12.862807,
    "longitude": 30.217636,
    "name": "Sudan"
  },
  {
    "num": 193,
    "country": "SE",
    "latitude": 60.128161,
    "longitude": 18.643501,
    "name": "Sweden"
  },
  {
    "num": 194,
    "country": "SG",
    "latitude": 1.352083,
    "longitude": 103.819836,
    "name": "Singapore"
  },
  {
    "num": 195,
    "country": "SH",
    "latitude": -24.143474,
    "longitude": -10.030696,
    "name": "Saint Helena"
  },
  {
    "num": 196,
    "country": "SI",
    "latitude": 46.151241,
    "longitude": 14.995463,
    "name": "Slovenia"
  },
  {
    "num": 197,
    "country": "SJ",
    "latitude": 77.553604,
    "longitude": 23.670272,
    "name": "Svalbard and Jan Mayen"
  },
  {
    "num": 198,
    "country": "SK",
    "latitude": 48.669026,
    "longitude": 19.699024,
    "name": "Slovakia"
  },
  {
    "num": 199,
    "country": "SL",
    "latitude": 8.460555,
    "longitude": -11.779889,
    "name": "Sierra Leone"
  },
  {
    "num": 200,
    "country": "SM",
    "latitude": 43.94236,
    "longitude": 12.457777,
    "name": "San Marino"
  },
  {
    "num": 201,
    "country": "SN",
    "latitude": 14.497401,
    "longitude": -14.452362,
    "name": "Senegal"
  },
  {
    "num": 202,
    "country": "SO",
    "latitude": 5.152149,
    "longitude": 46.199616,
    "name": "Somalia"
  },
  {
    "num": 203,
    "country": "SR",
    "latitude": 3.919305,
    "longitude": -56.027783,
    "name": "Suriname"
  },
  {
    "num": 204,
    "country": "ST",
    "latitude": 0.18636,
    "longitude": 6.613081,
    "name": "São Tomé and Príncipe"
  },
  {
    "num": 205,
    "country": "SV",
    "latitude": 13.794185,
    "longitude": -88.89653,
    "name": "El Salvador"
  },
  {
    "num": 206,
    "country": "SY",
    "latitude": 34.802075,
    "longitude": 38.996815,
    "name": "Syria"
  },
  {
    "num": 207,
    "country": "SZ",
    "latitude": -26.522503,
    "longitude": 31.465866,
    "name": "Swaziland"
  },
  {
    "num": 208,
    "country": "TC",
    "latitude": 21.694025,
    "longitude": -71.797928,
    "name": "Turks and Caicos Islands"
  },
  {
    "num": 209,
    "country": "TD",
    "latitude": 15.454166,
    "longitude": 18.732207,
    "name": "Chad"
  },
  {
    "num": 210,
    "country": "TF",
    "latitude": -49.280366,
    "longitude": 69.348557,
    "name": "French Southern Territories"
  },
  {
    "num": 211,
    "country": "TG",
    "latitude": 8.619543,
    "longitude": 0.824782,
    "name": "Togo"
  },
  {
    "num": 212,
    "country": "TH",
    "latitude": 15.870032,
    "longitude": 100.992541,
    "name": "Thailand"
  },
  {
    "num": 213,
    "country": "TJ",
    "latitude": 38.861034,
    "longitude": 71.276093,
    "name": "Tajikistan"
  },
  {
    "num": 214,
    "country": "TK",
    "latitude": -8.967363,
    "longitude": -171.855881,
    "name": "Tokelau"
  },
  {
    "num": 215,
    "country": "TL",
    "latitude": -8.874217,
    "longitude": 125.727539,
    "name": "Timor-Leste"
  },
  {
    "num": 216,
    "country": "TM",
    "latitude": 38.969719,
    "longitude": 59.556278,
    "name": "Turkmenistan"
  },
  {
    "num": 217,
    "country": "TN",
    "latitude": 33.886917,
    "longitude": 9.537499,
    "name": "Tunisia"
  },
  {
    "num": 218,
    "country": "TO",
    "latitude": -21.178986,
    "longitude": -175.198242,
    "name": "Tonga"
  },
  {
    "num": 219,
    "country": "TR",
    "latitude": 38.963745,
    "longitude": 35.243322,
    "name": "Turkey"
  },
  {
    "num": 220,
    "country": "TT",
    "latitude": 10.691803,
    "longitude": -61.222503,
    "name": "Trinidad and Tobago"
  },
  {
    "num": 221,
    "country": "TV",
    "latitude": -7.109535,
    "longitude": 177.64933,
    "name": "Tuvalu"
  },
  {
    "num": 222,
    "country": "TW",
    "latitude": 23.69781,
    "longitude": 120.960515,
    "name": "Taiwan"
  },
  {
    "num": 223,
    "country": "TZ",
    "latitude": -6.369028,
    "longitude": 34.888822,
    "name": "Tanzania"
  },
  {
    "num": 224,
    "country": "UA",
    "latitude": 48.379433,
    "longitude": 31.16558,
    "name": "Ukraine"
  },
  {
    "num": 225,
    "country": "UG",
    "latitude": 1.373333,
    "longitude": 32.290275,
    "name": "Uganda"
  },
  {
    "num": 226,
    "country": "UM",
    "latitude": "",
    "longitude": "",
    "name": "U.S. Minor Outlying Islands"
  },
  {
    "num": 227,
    "country": "US",
    "latitude": 37.09024,
    "longitude": -95.712891,
    "name": "United States"
  },
  {
    "num": 228,
    "country": "UY",
    "latitude": -32.522779,
    "longitude": -55.765835,
    "name": "Uruguay"
  },
  {
    "num": 229,
    "country": "UZ",
    "latitude": 41.377491,
    "longitude": 64.585262,
    "name": "Uzbekistan"
  },
  {
    "num": 230,
    "country": "VA",
    "latitude": 41.902916,
    "longitude": 12.453389,
    "name": "Vatican City"
  },
  {
    "num": 231,
    "country": "VC",
    "latitude": 12.984305,
    "longitude": -61.287228,
    "name": "Saint Vincent and the Grenadines"
  },
  {
    "num": 232,
    "country": "VE",
    "latitude": 6.42375,
    "longitude": -66.58973,
    "name": "Venezuela"
  },
  {
    "num": 233,
    "country": "VG",
    "latitude": 18.420695,
    "longitude": -64.639968,
    "name": "British Virgin Islands"
  },
  {
    "num": 234,
    "country": "VI",
    "latitude": 18.335765,
    "longitude": -64.896335,
    "name": "U.S. Virgin Islands"
  },
  {
    "num": 235,
    "country": "VN",
    "latitude": 14.058324,
    "longitude": 108.277199,
    "name": "Vietnam"
  },
  {
    "num": 236,
    "country": "VU",
    "latitude": -15.376706,
    "longitude": 166.959158,
    "name": "Vanuatu"
  },
  {
    "num": 237,
    "country": "WF",
    "latitude": -13.768752,
    "longitude": -177.156097,
    "name": "Wallis and Futuna"
  },
  {
    "num": 238,
    "country": "WS",
    "latitude": -13.759029,
    "longitude": -172.104629,
    "name": "Samoa"
  },
  {
    "num": 239,
    "country": "XK",
    "latitude": 42.602636,
    "longitude": 20.902977,
    "name": "Kosovo"
  },
  {
    "num": 240,
    "country": "YE",
    "latitude": 15.552727,
    "longitude": 48.516388,
    "name": "Yemen"
  },
  {
    "num": 241,
    "country": "YT",
    "latitude": -12.8275,
    "longitude": 45.166244,
    "name": "Mayotte"
  },
  {
    "num": 242,
    "country": "ZA",
    "latitude": -30.559482,
    "longitude": 22.937506,
    "name": "South Africa"
  },
  {
    "num": 243,
    "country": "ZM",
    "latitude": -13.133897,
    "longitude": 27.849332,
    "name": "Zambia"
  },
  {
    "num": 244,
    "country": "ZW",
    "latitude": -19.015438,
    "longitude": 29.154857,
    "name": "Zimbabwe"
  }
]